{"type":"FeatureCollection","crs":{"type":"name","properties":{"name":"urn:ogc:def:crs:OGC:1.3:CRS84"}},"features":[{"geometry":{"coordinates":[3.109456,45.811992],"type":"Point"},"properties":{"index":"node_7St5cKstGjL7r9fQ82Feux","stop_code":null,"stop_name":"Croix-de-Neyrat","route_width":6},"type":"Feature"},{"geometry":{"coordinates":[3.114636,45.890898],"type":"Point"},"properties":{"index":"node_33jtEN3RxueKPDKnAUEJJA","stop_code":null,"stop_name":"Riom","route_width":6},"type":"Feature"},{"geometry":{"coordinates":[3.109301,45.81197],"type":"Point"},"properties":{"index":"node_eER3q1DsPVMPXocfH8jJbH","stop_code":null,"stop_name":"Croix-de-Neyrat","route_width":3},"type":"Feature"},{"geometry":{"coordinates":[3.114636,45.890898],"type":"Point"},"properties":{"index":"node_4A6tBWh2K4DHEuVmGkA3tx","stop_code":null,"stop_name":"Riom","route_width":3},"type":"Feature"},{"geometry":{"coordinates":[3.101473,45.7798],"type":"Point"},"properties":{"index":"node_sAN6V1B3jeCqCFXoE6x1vn","stop_code":null,"stop_name":"Clermont Gare","route_width":3},"type":"Feature"},{"geometry":{"coordinates":[3.384604,45.8486],"type":"Point"},"properties":{"index":"node_fgmxDaNaU6dNqKH6426KVJ","stop_code":null,"stop_name":"Lezoux","route_width":3},"type":"Feature"},{"geometry":{"coordinates":[3.504394,45.859754],"type":"Point"},"properties":{"index":"node_636UubJfJAeu46xa8StNLH","stop_code":null,"stop_name":"Thiers Ouest","route_width":3},"type":"Feature"},{"geometry":{"coordinates":[3.101466,45.779796],"type":"Point"},"properties":{"index":"node_hyeUKA5kU2VBBfXc3BqLYS","stop_code":null,"stop_name":"Clermont Gare","route_width":3},"type":"Feature"},{"geometry":{"coordinates":[3.384604,45.8486],"type":"Point"},"properties":{"index":"node_7vjV4Yh6tiKnom2oEZfbee","stop_code":null,"stop_name":"Ornon","route_width":3},"type":"Feature"},{"geometry":{"coordinates":[3.20429,46.097392],"type":"Point"},"properties":{"index":"node_9zVLvAWb7gctF5RiFvoAo3","stop_code":null,"stop_name":"Gannat Gare","route_width":3},"type":"Feature"},{"geometry":{"coordinates":[3.430273,46.125917],"type":"Point"},"properties":{"index":"node_mC6cw4dMdeJKBQiz2Yz2hp","stop_code":null,"stop_name":"Vichy","route_width":3},"type":"Feature"},{"geometry":{"coordinates":[3.464933,46.06686],"type":"Point"},"properties":{"index":"node_qF6cNBod62niEjtHSZQ4sn","stop_code":null,"stop_name":"St Yorre","route_width":3},"type":"Feature"},{"geometry":{"coordinates":[3.47411,45.959914],"type":"Point"},"properties":{"index":"node_sQPjkP4XQkmrvahaGjXDyX","stop_code":null,"stop_name":"Puy Guillaume","route_width":3},"type":"Feature"},{"geometry":{"coordinates":[3.734962,45.550556],"type":"Point"},"properties":{"index":"node_kyGrjuT7xH1dYPNcjCQ9JQ","stop_code":null,"stop_name":"Ambert","route_width":3},"type":"Feature"},{"geometry":{"coordinates":[3.092328,45.659888],"type":"Point"},"properties":{"index":"node_sTsAKCc2XnWJDqcjptHHBm","stop_code":null,"stop_name":"St Saturnin","route_width":3},"type":"Feature"},{"geometry":{"coordinates":[3.108095,45.669401],"type":"Point"},"properties":{"index":"node_7q59jZJvVdjAJtaJrrgFuM","stop_code":null,"stop_name":"St Amant Tallende","route_width":3},"type":"Feature"},{"geometry":{"coordinates":[3.122599,45.671732],"type":"Point"},"properties":{"index":"node_5sUCfu2jk1GW2ppQ1MXVPf","stop_code":null,"stop_name":"Tallende","route_width":3},"type":"Feature"},{"geometry":{"coordinates":[3.143595,45.685375],"type":"Point"},"properties":{"index":"node_rcusnhAHf3qWSmu8BctoJ6","stop_code":null,"stop_name":"La Jonchere","route_width":3},"type":"Feature"},{"geometry":{"coordinates":[3.13037,45.762084],"type":"Point"},"properties":{"index":"node_ifVTK1pZYjoGz3zgpmbB44","stop_code":null,"stop_name":"La Fayette","route_width":3},"type":"Feature"},{"geometry":{"coordinates":[3.134623,45.76675],"type":"Point"},"properties":{"index":"node_3AyWV3aXirfHLy3HEr8EEh","stop_code":null,"stop_name":"La Pardieu","route_width":3},"type":"Feature"},{"geometry":{"coordinates":[3.332793,45.723932],"type":"Point"},"properties":{"index":"node_tuGrRm4NCQX2PFhYKksXrj","stop_code":null,"stop_name":"Billom","route_width":3},"type":"Feature"},{"geometry":{"coordinates":[3.210352,45.744908],"type":"Point"},"properties":{"index":"node_2rvVpN8MLJyjrnnoHY3Q1v","stop_code":null,"stop_name":"Lycee Descartes","route_width":3},"type":"Feature"},{"geometry":{"coordinates":[3.289808,45.771142],"type":"Point"},"properties":{"index":"node_kXP21unQ5fh3PupG1PcJKJ","stop_code":null,"stop_name":"Vertaizon Centre","route_width":3},"type":"Feature"},{"geometry":{"coordinates":[3.286037,45.785985],"type":"Point"},"properties":{"index":"node_vWL6bfWRaX45vjiMDFXJao","stop_code":null,"stop_name":"Vertaizon Chignat","route_width":3},"type":"Feature"},{"geometry":{"coordinates":[3.120131,45.78175],"type":"Point"},"properties":{"index":"node_3iBT7SsnyZMY183uJNwXe2","stop_code":null,"stop_name":"CF St Jean","route_width":3},"type":"Feature"},{"geometry":{"coordinates":[3.113529,45.799173],"type":"Point"},"properties":{"index":"node_23R67hVo269hQwBm5C5yNj","stop_code":null,"stop_name":"P+R Les Pistes","route_width":3},"type":"Feature"},{"geometry":{"coordinates":[3.224493,45.895623],"type":"Point"},"properties":{"index":"node_2Zd1VHUDmpynAEyySQDPFR","stop_code":null,"stop_name":"Ennezat","route_width":3},"type":"Feature"},{"geometry":{"coordinates":[3.330468,45.920487],"type":"Point"},"properties":{"index":"node_aC5KRwnfbzchj3ALYasdo1","stop_code":null,"stop_name":"Maringues","route_width":3},"type":"Feature"},{"geometry":{"coordinates":[3.354572,46.015595],"type":"Point"},"properties":{"index":"node_xbgpXvnt2zHCMN4fpVtnGH","stop_code":null,"stop_name":"Randan Centre","route_width":3},"type":"Feature"},{"geometry":{"coordinates":[3.380866,45.296988],"type":"Point"},"properties":{"index":"node_3oV3xJdf38yJ6h4FXVPJwY","stop_code":null,"stop_name":"CH Brioude","route_width":3},"type":"Feature"},{"geometry":{"coordinates":[3.253322,45.543715],"type":"Point"},"properties":{"index":"node_xBkMfhe6akczd8JCnzB3Ye","stop_code":null,"stop_name":"Issoire Gare","route_width":3},"type":"Feature"},{"geometry":{"coordinates":[3.083108,45.770453],"type":"Point"},"properties":{"index":"node_cV5Hwy2awJ1T6MNgS5jaBx","stop_code":null,"stop_name":"CF Gare routiere","route_width":3},"type":"Feature"},{"geometry":{"coordinates":[2.901956,45.715935],"type":"Point"},"properties":{"index":"node_6f7xToxUFZbv9KZhkBwzc2","stop_code":null,"stop_name":"Nebouzat","route_width":3},"type":"Feature"},{"geometry":{"coordinates":[2.802316,45.684931],"type":"Point"},"properties":{"index":"node_gkRHXGjvcETFXE2vkPgmhb","stop_code":null,"stop_name":"Rochefort Montagne","route_width":3},"type":"Feature"},{"geometry":{"coordinates":[2.852397,45.832167],"type":"Point"},"properties":{"index":"node_o48Yg9m5AuymdyyF8oEVFN","stop_code":null,"stop_name":"Pontgibaud","route_width":3},"type":"Feature"},{"geometry":{"coordinates":[3.022184,45.780004],"type":"Point"},"properties":{"index":"node_bobtRStBjuSK2Rj7vtegJD","stop_code":null,"stop_name":"Orcines","route_width":3},"type":"Feature"},{"geometry":{"coordinates":[3.087653,45.993634],"type":"Point"},"properties":{"index":"node_36nKoMKCmjGE83CrC9sukS","stop_code":null,"stop_name":"Porte des Combrailles","route_width":6},"type":"Feature"},{"geometry":{"coordinates":[3.200092,46.015317],"type":"Point"},"properties":{"index":"node_rRZ5c14YJTN41AcpkMRhAB","stop_code":null,"stop_name":"Aigueperse Gare","route_width":3},"type":"Feature"},{"geometry":{"coordinates":[3.039816,45.874023],"type":"Point"},"properties":{"index":"node_dTvcfSbPXAyTRJASsp6z6g","stop_code":null,"stop_name":"Volvic Centre","route_width":3},"type":"Feature"},{"geometry":{"coordinates":[3.046778,45.842526],"type":"Point"},"properties":{"index":"node_aXtAhDM14dT38EHodpHXDm","stop_code":null,"stop_name":"Malauzat","route_width":6},"type":"Feature"},{"geometry":{"coordinates":[3.050723,45.806671],"type":"Point"},"properties":{"index":"node_qSNEGZV5EgzZ2TK31z2BrB","stop_code":null,"stop_name":"Nohanent","route_width":6},"type":"Feature"},{"geometry":{"coordinates":[3.05284,45.793995],"type":"Point"},"properties":{"index":"node_v24zWnowGr78nzGbrF7gTK","stop_code":null,"stop_name":"Durtol","route_width":6},"type":"Feature"},{"geometry":{"coordinates":[3.072266,45.919514],"type":"Point"},"properties":{"index":"node_bGqjz5Dr3tAnbmCKXQEMo7","stop_code":null,"stop_name":"Chatel Guyon","route_width":6},"type":"Feature"},{"geometry":{"coordinates":[3.048998,45.898111],"type":"Point"},"properties":{"index":"node_hqpvzejyV9b4fxRMafhRpi","stop_code":null,"stop_name":"Enval","route_width":6},"type":"Feature"},{"geometry":{"coordinates":[3.127657,45.837619],"type":"Point"},"properties":{"index":"node_nfKmQJFxm2ZposNSoM1sfK","stop_code":null,"stop_name":"Ladoux_2","route_width":3},"type":"Feature"},{"geometry":{"coordinates":[3.116711,45.842455],"type":"Point"},"properties":{"index":"node_jzrMpH5buwg8hSy7mLnxux","stop_code":null,"stop_name":"Ladoux_1","route_width":3},"type":"Feature"},{"geometry":{"coordinates":[3.120145,45.890244],"type":"Point"},"properties":{"index":"node_jingjL7g41BtpZf16vADdJ","stop_code":null,"stop_name":"riom_gare","route_width":3},"type":"Feature"},{"geometry":{"coordinates":[3.245946,45.642202],"type":"Point"},"properties":{"index":"node_rrHpUDjPZjbpYcWfBbutub","stop_code":null,"stop_name":"vic le comte_centre","route_width":3},"type":"Feature"},{"geometry":{"coordinates":[3.20827,45.665085],"type":"Point"},"properties":{"index":"node_mToDUMDar3n5pe8aeLiojA","stop_code":null,"stop_name":"vic le comte_gare","route_width":3},"type":"Feature"},{"geometry":{"coordinates":[2.855224,45.511589],"type":"Point"},"properties":{"index":"node_hugiqoJAuMxGb4XS6kvpp9","stop_code":null,"stop_name":"SuperBesse","route_width":6},"type":"Feature"},{"geometry":{"coordinates":[3.432537,46.209537],"type":"Point"},"properties":{"index":"node_unLgR9Eta4Rk1QZJTW4oWY","stop_code":null,"stop_name":"St Germain des Fosses","route_width":3},"type":"Feature"},{"geometry":{"coordinates":[3.286809,46.306944],"type":"Point"},"properties":{"index":"node_76noAG6EywbeUWHN1EB36J","stop_code":null,"stop_name":"St Pourcain","route_width":3},"type":"Feature"},{"geometry":{"coordinates":[3.793068,46.345631],"type":"Point"},"properties":{"index":"node_4BWiMVgD4XTfEUBDhxTs9R","stop_code":null,"stop_name":"Le Donjon","route_width":3},"type":"Feature"},{"geometry":{"coordinates":[3.642896,46.250502],"type":"Point"},"properties":{"index":"node_dCRxZYtzeU5H5SwGbsukqt","stop_code":null,"stop_name":"Lapalisse","route_width":3},"type":"Feature"},{"geometry":{"coordinates":[3.250347,45.56005],"type":"Point"},"properties":{"index":"node_ez1E2Hw1mRo8qBPtpY4TEH","stop_code":null,"stop_name":"Issoire ZA","route_width":3},"type":"Feature"}]}