{"type":"FeatureCollection","crs":{"type":"name","properties":{"name":"urn:ogc:def:crs:OGC:1.3:CRS84"}},"features":[{"type":"Feature","properties":{"index":"node_4b2VnuC1zTsPzd9ueovVuH","stop_code":null,"stop_name":"Thiers","route_width":3},"geometry":{"type":"Point","coordinates":[3.504438,45.859871]}},{"type":"Feature","properties":{"index":"node_a3ZLvXzFnMqGNGu4hjEYT6","stop_code":null,"stop_name":"Ornon","route_width":3},"geometry":{"type":"Point","coordinates":[3.383073,45.848686]}},{"type":"Feature","properties":{"index":"node_rwwVbaGFJtCHoKTZ6B83Ax","stop_code":null,"stop_name":"Clermont","route_width":3},"geometry":{"type":"Point","coordinates":[3.099602,45.778878]}},{"type":"Feature","properties":{"index":"node_f8Fb3oREhTRCmTVNW7TQzE","stop_code":null,"stop_name":"Chatel Guyon","route_width":3},"geometry":{"type":"Point","coordinates":[3.059995,45.920178]}},{"type":"Feature","properties":{"index":"node_b8e2FB6qm9PUQTLvQvNucR","stop_code":null,"stop_name":"Riom","route_width":3},"geometry":{"type":"Point","coordinates":[3.072846,45.895805]}},{"type":"Feature","properties":{"index":"node_wbHMs2n7zPVS1pp1cXnNw5","stop_code":null,"stop_name":"Clermont","route_width":3},"geometry":{"type":"Point","coordinates":[3.102955,45.780588]}},{"type":"Feature","properties":{"index":"node_2zTroDrJuDCKmipdvjBrtL","stop_code":null,"stop_name":"Gannat","route_width":3},"geometry":{"type":"Point","coordinates":[3.204202,46.097405]}},{"type":"Feature","properties":{"index":"node_6CErzt5T6gFonN6RkpvAM6","stop_code":null,"stop_name":"Vichy","route_width":3},"geometry":{"type":"Point","coordinates":[3.418726,46.120425]}}]}