{"type":"FeatureCollection","crs":{"type":"name","properties":{"name":"urn:ogc:def:crs:OGC:1.3:CRS84"}},"features":[{"geometry":{"coordinates":[3.101451,45.779789],"type":"Point"},"properties":{"index":"node_vh4NDiGoT7GmhVDuxKtfwy","stop_code":null,"stop_name":"Clermont Gare","route_width":3},"type":"Feature"},{"geometry":{"coordinates":[3.109456,45.812004],"type":"Point"},"properties":{"index":"node_jXrQhUo8hu7qf5XgECNdYa","stop_code":null,"stop_name":"Croix-de-Neyrat","route_width":3},"type":"Feature"},{"geometry":{"coordinates":[3.099461,45.830267],"type":"Point"},"properties":{"index":"node_aNVFJ6yH8JpLR5cMkQVnYh","stop_code":null,"stop_name":"Cébazat","route_width":3},"type":"Feature"},{"geometry":{"coordinates":[3.073685,45.827035],"type":"Point"},"properties":{"index":"node_aUDnkgcw1ViHnGUidk5CW5","stop_code":null,"stop_name":"Blanzat","route_width":3},"type":"Feature"},{"geometry":{"coordinates":[3.101445,45.779787],"type":"Point"},"properties":{"index":"node_cdZwXAqBe2JbdgzfHfN3kH","stop_code":null,"stop_name":"Clermont Gare","route_width":3},"type":"Feature"},{"geometry":{"coordinates":[3.109298,45.811829],"type":"Point"},"properties":{"index":"node_sQsnUywsmABb2Cu1FgUTgF","stop_code":null,"stop_name":"Croix-de-Neyrat","route_width":3},"type":"Feature"},{"geometry":{"coordinates":[3.099461,45.830267],"type":"Point"},"properties":{"index":"node_a64rcUPxXpMDbW213d59mE","stop_code":null,"stop_name":"Cébazat","route_width":3},"type":"Feature"},{"geometry":{"coordinates":[3.073685,45.827035],"type":"Point"},"properties":{"index":"node_om3PAB5tNokAm19KT6ifXC","stop_code":null,"stop_name":"Blanzat","route_width":3},"type":"Feature"},{"geometry":{"coordinates":[3.101543,45.779832],"type":"Point"},"properties":{"index":"node_6rQtn2pem68ouRZNB8hBMS","stop_code":null,"stop_name":"Clermont Gare","route_width":3},"type":"Feature"},{"geometry":{"coordinates":[3.109456,45.811992],"type":"Point"},"properties":{"index":"node_7St5cKstGjL7r9fQ82Feux","stop_code":null,"stop_name":"Croix-de-Neyrat","route_width":3},"type":"Feature"},{"geometry":{"coordinates":[3.114636,45.890898],"type":"Point"},"properties":{"index":"node_33jtEN3RxueKPDKnAUEJJA","stop_code":null,"stop_name":"Riom","route_width":3},"type":"Feature"},{"geometry":{"coordinates":[3.101537,45.779829],"type":"Point"},"properties":{"index":"node_iPmb6aXdhcdLeDVaef85DV","stop_code":null,"stop_name":"Clermont Gare","route_width":3},"type":"Feature"},{"geometry":{"coordinates":[3.109301,45.81197],"type":"Point"},"properties":{"index":"node_eER3q1DsPVMPXocfH8jJbH","stop_code":null,"stop_name":"Croix-de-Neyrat","route_width":3},"type":"Feature"},{"geometry":{"coordinates":[3.114636,45.890898],"type":"Point"},"properties":{"index":"node_4A6tBWh2K4DHEuVmGkA3tx","stop_code":null,"stop_name":"Riom","route_width":3},"type":"Feature"},{"geometry":{"coordinates":[2.690068,45.605999],"type":"Point"},"properties":{"index":"node_2wm9Y7Vs2WfWmoUbPRKZKQ","stop_code":null,"stop_name":"Saint-Sauves","route_width":3},"type":"Feature"},{"geometry":{"coordinates":[2.803089,45.685095],"type":"Point"},"properties":{"index":"node_m4uoHRPvZrRu4JCgfRSbiK","stop_code":null,"stop_name":"Rochefort-Montagne","route_width":3},"type":"Feature"},{"geometry":{"coordinates":[2.890347,45.727614],"type":"Point"},"properties":{"index":"node_9jvHs9FaDNinbvKfqkkQzk","stop_code":null,"stop_name":"Quatre-Routes","route_width":3},"type":"Feature"},{"geometry":{"coordinates":[3.101484,45.779804],"type":"Point"},"properties":{"index":"node_rL2LBZAUZiK5ak3uyiQVZf","stop_code":null,"stop_name":"Clermont Gare","route_width":3},"type":"Feature"},{"geometry":{"coordinates":[2.690068,45.605999],"type":"Point"},"properties":{"index":"node_qTJPfezhWdgmAs3VmsYSv9","stop_code":null,"stop_name":"Saint-Sauves","route_width":3},"type":"Feature"},{"geometry":{"coordinates":[2.803089,45.685095],"type":"Point"},"properties":{"index":"node_5D3smurAoDsVAD9y2kmaiC","stop_code":null,"stop_name":"Rochefort-Montagne","route_width":3},"type":"Feature"},{"geometry":{"coordinates":[2.890347,45.727614],"type":"Point"},"properties":{"index":"node_6WLV4BEJHgwSMGtMkpq5oP","stop_code":null,"stop_name":"Quatre-Routes","route_width":3},"type":"Feature"},{"geometry":{"coordinates":[3.10148,45.779803],"type":"Point"},"properties":{"index":"node_k8zQRqmTQedc2zm3kcjUZL","stop_code":null,"stop_name":"Clermont Gare","route_width":3},"type":"Feature"},{"geometry":{"coordinates":[3.101473,45.7798],"type":"Point"},"properties":{"index":"node_sAN6V1B3jeCqCFXoE6x1vn","stop_code":null,"stop_name":"Clermont Gare","route_width":3},"type":"Feature"},{"geometry":{"coordinates":[3.384604,45.8486],"type":"Point"},"properties":{"index":"node_fgmxDaNaU6dNqKH6426KVJ","stop_code":null,"stop_name":"Ornon","route_width":3},"type":"Feature"},{"geometry":{"coordinates":[3.547707,45.855079],"type":"Point"},"properties":{"index":"node_636UubJfJAeu46xa8StNLH","stop_code":null,"stop_name":"Thiers","route_width":3},"type":"Feature"},{"geometry":{"coordinates":[3.101466,45.779796],"type":"Point"},"properties":{"index":"node_hyeUKA5kU2VBBfXc3BqLYS","stop_code":null,"stop_name":"Clermont Gare","route_width":3},"type":"Feature"},{"geometry":{"coordinates":[3.384604,45.8486],"type":"Point"},"properties":{"index":"node_7vjV4Yh6tiKnom2oEZfbee","stop_code":null,"stop_name":"Ornon","route_width":3},"type":"Feature"},{"geometry":{"coordinates":[3.547707,45.855079],"type":"Point"},"properties":{"index":"node_hBZTQRqcXw5Tog6Kimwknm","stop_code":null,"stop_name":"Thiers","route_width":3},"type":"Feature"}]}